Date,Name,Start,End,Duration,Latitude,Longitude,Category,Link
09/07/17,Place in Ogre,2017-07-09T00:00:00+02:00,2017-07-09T11:14:39+02:00,40479,56.796208,24.614205,,
09/07/17,Place in Ogre,2017-07-09T11:18:59+02:00,2017-07-09T11:40:10+02:00,1271,56.798216,24.620031,,
09/07/17,Place in Ogresgals,2017-07-09T11:57:01+02:00,2017-07-09T12:07:56+02:00,655,56.778377,24.654194,,
09/07/17,Place in Kegums,2017-07-09T12:27:46+02:00,2017-07-09T12:31:53+02:00,247,56.738677,24.706959,,
09/07/17,Place in Vecumnieki,2017-07-09T14:09:25+02:00,2017-07-09T15:35:47+02:00,5182,56.599922,24.523921,,
09/07/17,Place in Germani≈°kis,2017-07-09T16:59:25+02:00,2017-07-09T17:40:09+02:00,2444,56.376309,24.646643,,
09/07/17,Place in Vabalninkas,2017-07-09T19:48:15+02:00,2017-07-09T20:00:51+02:00,756,56.016292,24.723059,,
09/07/17,Place in Kupiskis,2017-07-09T21:34:12+02:00,2017-07-09T21:39:21+02:00,309,55.848668,24.989322,,
09/07/17,Place in Kupiskis,2017-07-09T21:45:23+02:00,2017-07-10T00:00:00+02:00,8077,55.857765,24.982145,,
