Date,Name,Start,End,Duration,Latitude,Longitude,Category,Link
22/07/17,Place in Zalishchyky,2017-07-22T00:00:00+02:00,2017-07-22T09:21:04+02:00,33664,48.635585,25.731755,,
22/07/17,Place in Zvenyachiy,2017-07-22T09:45:48+02:00,2017-07-22T09:58:14+02:00,746,48.620756,25.739854,,
22/07/17,Place in Chernivtsi,2017-07-22T12:13:08+02:00,2017-07-22T12:35:10+02:00,1322,48.300391,25.930866,,
22/07/17,Place in Vascauti,2017-07-22T14:53:26+02:00,2017-07-22T15:21:16+02:00,1670,47.988611,26.059772,,
22/07/17,Place in Vascauti,2017-07-22T15:21:17+02:00,2017-07-22T15:30:47+02:00,570,47.988228,26.061052,,
22/07/17,Place in Siret,2017-07-22T15:46:16+02:00,2017-07-22T15:51:38+02:00,322,47.960637,26.070715,,
22/07/17,Place in Gramesti,2017-07-22T16:22:10+02:00,2017-07-22T17:54:34+02:00,5544,47.933603,26.123399,,
22/07/17,Place in Siminicea,2017-07-22T20:02:01+02:00,2017-07-23T00:00:00+02:00,14279,47.731296,26.404907,,
