Date,Name,Start,End,Duration,Latitude,Longitude,Category,Link
04/04/17,"Place in Christianshavn, København",2017-04-04T00:00:00+02:00,2017-04-04T10:06:04+02:00,36364,55.67439,12.59182,,
04/04/17,Den Sorte Diamant - Det Kgl. Bibliotek,2017-04-04T10:13:07+02:00,2017-04-04T10:25:13+02:00,726,55.67326,12.58214,,
04/04/17,"Place in Indre By, København",2017-04-04T10:25:14+02:00,2017-04-04T13:50:21+02:00,12307,55.674089,12.582005,,
04/04/17,"Place in Indre By, København",2017-04-04T13:50:22+02:00,2017-04-04T14:13:31+02:00,1389,55.67326,12.58214,,
04/04/17,"Place in Nørrebro, København",2017-04-04T14:31:44+02:00,2017-04-04T15:03:11+02:00,1887,55.686284,12.551324,,
04/04/17,"Place in Nørrebro, København",2017-04-04T15:08:53+02:00,2017-04-04T15:20:37+02:00,704,55.692704,12.551684,,
04/04/17,Københavns Hovedbibliotek,2017-04-04T15:38:09+02:00,2017-04-04T21:01:53+02:00,19424,55.68087,12.57365,,
04/04/17,Studenterhuset,2017-04-04T21:01:54+02:00,2017-04-04T21:17:42+02:00,948,55.681231529072,12.576168300433,,
04/04/17,"Place in Christianshavn, København",2017-04-04T21:24:16+02:00,2017-04-05T00:00:00+02:00,9344,55.67439,12.59182,,
